[
  {
    "id": 1,
    "type": "passenger",
    "driver": {
      "name": "First Driver",
      "phone": "+79850872575"
    },
    "coordinates": {
      "latitude": 55.713747,
      "longitude": 37.505749
    }
  },
  {
    "id": 2,
    "type": "freight",
    "driver": {
      "name": "Second Driver",
      "phone": "+79850872575"
    },
    "coordinates": {
      "latitude": 55.716503,
      "longitude": 37.911001
    }
  },
  {
    "id": 3,
    "type": "freight",
    "driver": {
      "name": "Third Driver",
      "phone": "+79850872575"
    },
    "coordinates": {
      "latitude": 55.87466,
      "longitude": 37.586311
    }
  },
  {
    "id": 4,
    "type": "special",
    "driver": {
      "name": "Fourth Driver",
      "phone": "+79850872575"
    },
    "coordinates": {
      "latitude": 55.635111,
      "longitude": 37.613165
    }
  },
  {
    "id": 5,
    "type": "special",
    "driver": {
      "name": "Fifth Driver",
      "phone": "+79850872575"
    },
    "coordinates": {
      "latitude": 55.822471,
      "longitude": 37.774289
    }
  },
  {
    "id": 6,
    "type": "passenger",
    "driver": {
      "name": "Sixth Driver",
      "phone": "+79850872575"
    },
    "coordinates": {
      "latitude": 55.675139,
      "longitude": 37.784055
    }
  },
  {
    "id": 7,
    "type": "passenger",
    "driver": {
      "name": "Seventh Driver",
      "phone": "+79850872575"
    },
    "coordinates": {
      "latitude": 55.999354,
      "longitude": 38.123392
    }
  },
  {
    "id": 8,
    "type": "freight",
    "driver": {
      "name": "Eighth Driver",
      "phone": "+79850872575"
    },
    "coordinates": {
      "latitude": 55.509241,
      "longitude": 37.610724
    }
  },
  {
    "id": 9,
    "type": "freight",
    "driver": {
      "name": "Ninth Driver",
      "phone": "+79850872575"
    },
    "coordinates": {
      "latitude": 55.933632,
      "longitude": 37.098055
    }
  },
  {
    "id": 10,
    "type": "passenger",
    "driver": {
      "name": "Tenth Driver",
      "phone": "+79850872575"
    },
    "coordinates": {
      "latitude": 55.877405,
      "longitude": 37.466688
    }
  }
]
